City_ID,City,Country,Lat,Lng,Max Temp,Humidity,Cloudiness,Wind Speed,Current Description
0,Cabo San Lucas,MX,22.8909,-109.9124,74.52,71,54,8.77,broken clouds
1,Saint George,US,37.1041,-113.5841,38.25,65,0,5.75,clear sky
2,Busselton,AU,-33.65,115.3333,52.56,66,12,11.56,few clouds
3,Altamira,BR,-3.2033,-52.2064,80.69,89,40,3.44,scattered clouds
4,Ahuimanu,US,21.4447,-157.8378,76.75,75,75,4.61,broken clouds
5,Saint-Philippe,RE,-21.3585,55.7679,80.19,81,27,8.23,scattered clouds
6,Yellowknife,CA,62.456,-114.3525,15.57,85,64,15.01,broken clouds
7,Chokurdakh,RU,70.6333,147.9167,-19.14,98,100,6.4,overcast clouds
8,Coquimbo,CL,-29.9533,-71.3436,60.53,77,75,2.3,broken clouds
9,Rikitea,PF,-23.1203,-134.9692,73.2,87,80,6.26,broken clouds
10,Sur,OM,22.5667,59.5289,82.67,56,5,9.08,clear sky
11,Ostrovnoy,RU,68.0531,39.5131,34.12,90,100,19.04,overcast clouds
12,Sangmelima,CM,2.9333,11.9833,72.19,94,91,0.69,light rain
13,Punta De Piedra,VE,7.6176,-71.4916,73.36,94,100,1.63,overcast clouds
14,Puerto Ayora,EC,-0.7393,-90.3518,68.56,87,94,5.01,overcast clouds
15,Mar Del Plata,AR,-38.0023,-57.5575,70.95,84,0,8.05,clear sky
16,Bluff,NZ,-46.6,168.3333,53.87,84,86,4.29,overcast clouds
17,Hermanus,ZA,-34.4187,19.2345,76.8,68,87,7.92,overcast clouds
18,Tumaco,CO,1.7986,-78.8156,75.83,79,100,7.36,overcast clouds
19,Jamestown,US,42.097,-79.2353,58.71,74,100,10.36,overcast clouds
20,Atuona,PF,-9.8,-139.0333,76.64,84,25,13.98,light rain
21,Ushuaia,AR,-54.8,-68.3,46.06,57,40,13.8,scattered clouds
22,Thompson,CA,55.7435,-97.8558,-11.04,84,40,3.44,scattered clouds
23,Bonavista,CA,48.6499,-53.1147,36.75,81,86,5.12,overcast clouds
24,Tilichiki,RU,60.4667,166.1,15.39,92,100,7.34,overcast clouds
25,Trofors,NO,65.5333,13.4063,49.87,96,100,22.28,overcast clouds
26,Punta Arenas,CL,-53.15,-70.9167,46.51,53,75,10.36,broken clouds
27,Indian Head,US,38.6001,-77.1622,64.35,95,100,6.91,mist
28,Khani,GE,41.9563,42.9566,56.77,56,17,2.21,few clouds
29,Vaini,TO,-21.2,-175.2,77.16,94,40,3.44,scattered clouds
30,Hobart,AU,-42.8794,147.3294,54.27,86,75,12.66,broken clouds
31,Longyearbyen,SJ,78.2186,15.6401,24.64,68,20,18.41,few clouds
32,Usinsk,RU,65.9939,57.5281,20.97,94,100,10.74,overcast clouds
33,Carnarvon,AU,-24.8667,113.6333,66.87,61,1,25.86,clear sky
34,Coahuayana,MX,18.7333,-103.6833,76.01,91,99,1.59,overcast clouds
35,Ribeira Grande,PT,38.5167,-28.7,65.77,59,20,12.66,few clouds
36,Soyo,AO,-6.1349,12.3689,80.33,71,100,7.81,overcast clouds
37,Jaora,IN,23.6333,75.1333,77.9,37,7,7.99,clear sky
38,Butaritari,KI,3.0707,172.7902,81.36,74,61,20.4,broken clouds
39,Nanortalik,GL,60.1432,-45.2371,26.22,75,100,13.38,overcast clouds
40,Sindor,RU,62.8629,51.8905,27.84,93,98,2.8,overcast clouds
41,Albany,US,42.6001,-73.9662,51.58,91,100,3.29,overcast clouds
42,Okhotsk,RU,59.3833,143.3,5.0,72,9,16.82,clear sky
43,Muros,ES,42.7762,-9.0603,69.67,85,0,3.09,clear sky
44,Cherskiy,RU,68.75,161.3,-18.67,100,96,4.14,overcast clouds
45,Mount Isa,AU,-20.7333,139.5,74.97,78,75,13.8,light rain
46,Bredasdorp,ZA,-34.5322,20.0403,76.5,49,76,12.1,broken clouds
47,Pevek,RU,69.7008,170.3133,2.34,95,100,3.85,overcast clouds
48,Ejea De Los Caballeros,ES,42.1263,-1.1372,61.02,47,52,13.02,broken clouds
49,College,US,64.8569,-147.8028,13.95,79,75,4.61,broken clouds
50,Thinadhoo,MV,0.5333,72.9333,82.09,76,75,14.05,broken clouds
51,Viedma,AR,-40.8135,-62.9967,63.21,51,55,6.6,broken clouds
52,Abalak,RU,58.1286,68.5944,32.67,97,100,9.66,overcast clouds
53,Maniitsoq,GL,65.4167,-52.9,21.13,57,100,7.47,overcast clouds
54,Barrow,US,71.2906,-156.7887,8.62,85,0,13.8,clear sky
55,Bethel,US,41.3712,-73.414,58.33,85,100,0.0,overcast clouds
56,Chuy,UY,-33.6971,-53.4616,69.04,70,98,9.93,overcast clouds
57,Saskylakh,RU,71.9167,114.0833,-31.02,100,49,2.98,scattered clouds
58,Castro,BR,-24.7911,-50.0119,63.05,80,100,9.4,moderate rain
59,Kavaratti,IN,10.5669,72.642,82.99,64,66,8.1,broken clouds
60,Vardo,NO,70.3705,31.1107,37.38,87,75,23.02,light rain
61,Port Alfred,ZA,-33.5906,26.891,77.74,72,85,27.98,overcast clouds
62,Nome,US,64.5011,-165.4064,12.27,85,0,5.75,clear sky
63,Haines Junction,CA,60.7522,-137.5108,17.55,86,93,1.14,overcast clouds
64,Lavrentiya,RU,65.5833,-171.0,12.63,87,26,8.12,scattered clouds
65,East London,ZA,-33.0153,27.9116,75.16,75,100,23.47,light rain
66,Provideniya,RU,64.3833,-173.3,14.59,85,35,7.4,scattered clouds
67,Kruisfontein,ZA,-34.0033,24.7314,85.89,47,0,17.13,clear sky
68,Grand Gaube,MU,-20.0064,57.6608,79.2,65,20,8.01,few clouds
69,Babushkin,RU,51.7122,105.8647,23.4,80,22,6.33,few clouds
70,Mataura,NZ,-46.1927,168.8643,47.8,93,100,1.79,overcast clouds
71,Tiksi,RU,71.6872,128.8694,-13.79,100,76,2.35,broken clouds
72,Kodiak,US,57.79,-152.4072,38.71,87,100,18.41,light rain
73,Hirara,JP,24.8,125.2833,78.75,86,2,13.67,clear sky
74,Bushehr,IR,28.9684,50.8385,87.89,37,100,4.61,overcast clouds
75,Norman Wells,CA,65.282,-126.8329,12.24,85,100,4.61,light snow
76,Lesosibirsk,RU,58.2358,92.4828,28.11,96,99,6.42,overcast clouds
77,Chunhuhub,MX,19.55,-88.6833,66.2,99,4,1.66,clear sky
78,Cape Town,ZA,-33.9258,18.4232,75.9,52,80,5.01,broken clouds
79,Coihaique,CL,-45.5752,-72.0662,52.41,93,100,3.44,light intensity drizzle
80,Gamba,GA,-2.65,10.0,80.87,73,73,7.34,broken clouds
81,Kapaa,US,22.0752,-159.319,75.18,84,100,12.66,overcast clouds
82,Zhaoyuan,CN,37.3592,120.3964,57.88,91,50,9.17,scattered clouds
83,Dikson,RU,73.5069,80.5464,-1.44,94,36,13.0,scattered clouds
84,Saint Anthony,US,45.0205,-93.218,27.25,78,100,12.66,overcast clouds
85,Port Hardy,CA,50.6996,-127.4199,39.97,90,100,18.12,light rain
86,Los Llanos De Aridane,ES,28.6585,-17.9182,71.35,81,40,5.75,scattered clouds
87,Aras,ES,42.5617,-2.356,61.23,59,20,12.66,few clouds
88,Damavand,IR,35.7178,52.065,50.16,39,57,5.97,broken clouds
89,Avarua,CK,-21.2078,-159.775,73.45,68,100,3.44,overcast clouds
90,Vila Velha,BR,-20.3297,-40.2925,82.35,79,75,6.91,broken clouds
91,Lebu,CL,-37.6167,-73.65,55.06,91,91,10.27,overcast clouds
92,Auki,SB,-8.7676,160.7034,77.61,87,100,6.22,moderate rain
93,Tasiilaq,GL,65.6145,-37.6368,33.96,71,100,26.98,overcast clouds
94,Ust-Koksa,RU,50.2696,85.6108,19.02,93,100,0.63,overcast clouds
95,Labuhan,ID,-6.8844,112.2051,81.84,78,100,4.85,light rain
96,Tuktoyaktuk,CA,69.4541,-133.0374,23.32,96,100,9.24,light snow
97,Inverell,AU,-29.7833,151.1167,60.15,81,45,1.99,scattered clouds
98,Kaeo,NZ,-35.1,173.7833,65.32,95,30,3.89,scattered clouds
99,Port Elizabeth,ZA,-33.918,25.5701,88.11,77,0,23.02,clear sky
100,Sorgun,TR,39.8101,35.186,54.88,41,0,2.68,clear sky
101,Naryan-Mar,RU,67.6713,53.087,16.3,98,78,2.35,broken clouds
102,Cockburn Town,TC,21.4612,-71.1419,82.38,77,1,15.39,clear sky
103,Berdigestyakh,RU,62.0989,126.6992,11.25,91,100,10.58,light snow
104,Bogotol,RU,56.2078,89.5342,27.79,94,99,9.89,overcast clouds
105,Aleppo,SY,36.25,37.5,68.76,40,4,7.36,clear sky
106,North Bend,US,43.4065,-124.2243,42.71,92,75,9.22,broken clouds
107,Djenne,ML,13.9061,-4.5533,94.21,10,6,3.71,clear sky
108,Dabat,ET,12.9842,37.765,65.71,47,48,6.44,scattered clouds
109,Hambantota,LK,6.1241,81.1185,83.91,71,65,16.64,broken clouds
110,La Ronge,CA,55.1001,-105.2842,3.42,85,75,4.61,broken clouds
111,Srednekolymsk,RU,67.45,153.6833,-23.19,100,79,3.15,broken clouds
112,Laguna,US,38.421,-121.4238,46.09,92,0,0.0,clear sky
113,Koshurnikovo,RU,54.1667,93.3,25.41,97,100,3.62,snow
114,Villa Carlos Paz,AR,-31.4241,-64.4978,69.89,39,97,1.01,overcast clouds
115,Bobo Dioulasso,BF,11.1771,-4.2979,92.61,19,13,2.13,few clouds
116,Taksimo,RU,56.3444,114.8794,7.38,86,54,3.15,broken clouds
117,Richards Bay,ZA,-28.783,32.0377,80.8,59,100,14.5,overcast clouds
118,Hilo,US,19.7297,-155.09,70.25,86,0,6.91,clear sky
119,Kirakira,SB,-10.4544,161.9205,79.43,87,100,9.19,overcast clouds
120,Clyde River,CA,70.4692,-68.5914,-5.57,77,20,11.5,few clouds
121,Mahebourg,MU,-20.4081,57.7,79.09,69,40,9.22,scattered clouds
122,Khatanga,RU,71.9667,102.5,-24.54,100,90,6.6,overcast clouds
123,Meulaboh,ID,4.1363,96.1285,78.22,82,100,1.54,light rain
124,Tuatapere,NZ,-46.1333,167.6833,50.88,89,99,2.44,overcast clouds
125,Wanning,CN,18.8003,110.3967,75.87,83,100,7.87,overcast clouds
126,Royan,FR,45.6285,-1.0281,64.81,63,2,13.11,clear sky
127,Dingle,PH,10.9995,122.6711,77.36,89,16,6.2,few clouds
128,Chapais,CA,49.7834,-74.8492,28.18,96,100,8.12,snow
129,Erzincan,TR,39.75,39.5,58.3,41,40,3.44,scattered clouds
130,Saldanha,ZA,-33.0117,17.9442,68.7,59,86,12.97,overcast clouds
131,Mongoumba,CF,3.6415,18.5936,82.72,70,95,1.99,light rain
132,Tayshet,RU,55.9342,98.0044,28.06,83,100,6.93,overcast clouds
133,Ishigaki,JP,24.3448,124.1572,80.73,89,75,10.36,broken clouds
134,Basco,PH,20.4487,121.9702,80.69,86,11,15.59,few clouds
135,Amapa,BR,1.0,-52.0,80.91,69,100,3.44,overcast clouds
136,Banda Aceh,ID,5.5577,95.3222,77.16,85,100,8.19,overcast clouds
137,Chernyshevskiy,RU,63.0128,112.4714,-2.87,96,38,6.8,scattered clouds
138,Luderitz,NA,-26.6481,15.1594,67.26,61,1,17.69,clear sky
139,Kudahuvadhoo,MV,2.6708,72.8944,81.28,75,93,15.08,overcast clouds
140,Vandra,EE,58.6481,25.0361,53.26,90,100,13.8,overcast clouds
141,Ornskoldsvik,SE,63.2909,18.7153,47.35,87,100,14.97,overcast clouds
142,Gizo,SB,-8.103,156.8419,82.36,79,98,6.98,light rain
143,Baruun-Urt,MN,46.6806,113.2792,23.07,48,100,6.06,overcast clouds
144,Esil,KZ,51.9556,66.4042,32.47,98,100,16.51,light snow
145,Ilebo,CD,-4.3167,20.5833,76.53,94,96,3.98,moderate rain
146,Pasighat,IN,28.0667,95.3333,66.7,72,0,3.51,clear sky
147,Sitka,US,57.0531,-135.33,37.29,87,75,4.61,broken clouds
148,Nikolskoye,RU,59.7035,30.7861,49.91,88,100,14.61,light rain
149,Kathmandu,NP,27.7167,85.3167,62.82,77,20,5.75,few clouds
150,Sao Filipe,CV,14.8961,-24.4956,78.06,68,88,6.73,overcast clouds
151,Hithadhoo,MV,-0.6,73.0833,82.04,76,33,13.85,scattered clouds
152,Mongu,ZM,-15.2484,23.1274,80.71,46,98,11.9,overcast clouds
153,Albion,US,42.2431,-84.753,51.66,70,0,0.0,clear sky
154,Tsumeb,NA,-19.2333,17.7167,80.13,44,35,12.68,light rain
155,Balilihan,PH,9.7561,123.973,77.25,91,100,5.5,overcast clouds
156,Tura,IN,25.5198,90.2201,66.49,88,33,2.93,scattered clouds
157,Naze,JP,28.3667,129.4833,72.52,92,97,16.26,light rain
158,Chicama,PE,-7.8447,-79.1469,59.54,82,88,2.42,overcast clouds
159,Narsaq,GL,60.9167,-46.05,25.02,92,100,0.63,light snow
160,Valadares,PT,41.1474,-7.9812,59.54,80,0,6.13,clear sky
161,Ponta Do Sol,PT,32.6667,-17.1,74.03,71,7,3.24,clear sky
162,Cayenne,GF,4.9333,-52.3333,75.24,94,75,0.0,light rain
163,Guangyuan,CN,32.442,105.823,53.17,76,100,11.34,overcast clouds
164,Iranshahr,IR,27.2025,60.6848,87.6,18,4,3.96,clear sky
165,Baruipur,IN,22.3497,88.4392,82.35,44,23,5.03,few clouds
166,Adrar,MR,20.5022,-10.0711,84.4,7,26,11.59,scattered clouds
167,Maningrida,AU,-12.0667,134.2667,84.52,68,9,10.63,clear sky
168,Souillac,MU,-20.5167,57.5167,76.48,71,32,10.33,scattered clouds
169,Olafsvik,IS,64.8945,-23.7142,40.95,85,100,23.0,overcast clouds
170,Lauf,DE,48.65,8.1333,55.06,88,100,2.3,mist
171,Katsuura,JP,35.1333,140.3,63.86,76,60,10.67,light rain
172,Rundu,NA,-17.9333,19.7667,90.03,29,77,6.13,broken clouds
173,Assiniboia,CA,49.6334,-105.9845,-7.78,77,85,4.61,overcast clouds
174,Baker City,US,44.7749,-117.8344,22.59,92,0,3.44,clear sky
175,Fomboni,KM,-12.28,43.7425,79.3,76,1,9.6,clear sky
176,Shimoda,JP,34.6667,138.95,64.45,75,52,10.89,broken clouds
177,Tual,ID,-5.6667,132.75,84.34,71,49,3.27,scattered clouds
178,Klaksvik,FO,62.2266,-6.589,50.92,82,100,23.87,overcast clouds
179,Pacific Grove,US,36.6177,-121.9166,45.64,83,0,0.0,clear sky
180,Les Cayes,HT,18.2,-73.75,77.77,82,19,2.17,few clouds
181,Hay River,CA,60.8156,-115.7999,4.98,78,40,9.22,scattered clouds
182,Dunedin,NZ,-45.8742,170.5036,54.81,79,100,11.01,overcast clouds
183,San Juan,AR,-31.5375,-68.5364,68.29,60,4,8.08,clear sky
184,Bengkulu,ID,-3.8004,102.2655,75.07,91,100,2.28,overcast clouds
185,Kendari,ID,-3.945,122.4989,78.33,89,100,1.3,overcast clouds
186,Kieta,PG,-6.2167,155.6333,78.8,86,98,2.51,moderate rain
187,Wewak,PG,-3.5534,143.6268,80.64,81,97,8.05,overcast clouds
188,Jvari,GE,42.7169,42.052,58.24,67,7,3.53,clear sky
189,New Norfolk,AU,-42.7826,147.0587,53.92,63,91,1.21,overcast clouds
190,Nyurba,RU,63.2842,118.3319,-8.55,96,62,5.73,broken clouds
191,Port Augusta,AU,-32.5,137.7667,70.61,56,85,8.59,overcast clouds
192,Leh,IN,34.1667,77.5833,25.2,46,30,4.45,scattered clouds
193,Maragogi,BR,-9.0122,-35.2225,82.35,71,32,8.21,scattered clouds
194,Kahului,US,20.8947,-156.47,76.84,79,20,5.99,few clouds
195,Camapua,BR,-19.5314,-54.0439,85.51,43,55,10.76,broken clouds
196,Lompoc,US,34.6391,-120.4579,50.59,92,0,10.36,clear sky
197,Taltal,CL,-25.4,-70.4833,61.72,71,86,1.03,overcast clouds
198,Kishapu,TZ,-3.6167,33.8667,83.14,37,91,2.98,overcast clouds
199,Djambala,CG,-2.5447,14.7533,75.65,75,84,3.4,light rain
200,Pristen,RU,51.2355,36.6959,45.32,74,96,8.23,overcast clouds
201,Upernavik,GL,72.7868,-56.1549,12.16,84,100,6.96,overcast clouds
202,Espanola,US,35.9911,-106.0806,31.6,56,0,1.81,clear sky
203,Bairiki,KI,1.3292,172.9752,80.6,74,20,9.22,few clouds
204,Asyut,EG,27.181,31.1837,79.14,23,0,12.44,clear sky
205,Airai,TL,-8.9266,125.4092,63.45,93,100,2.01,overcast clouds
206,Acajutla,SV,13.5928,-89.8275,76.15,76,49,5.19,scattered clouds
207,Evensk,RU,61.95,159.2333,15.84,94,100,20.54,snow
208,Iqaluit,CA,63.7506,-68.5145,2.93,78,100,2.3,light snow
209,Altay,CN,47.8667,88.1167,22.59,57,95,4.97,overcast clouds
210,Mahon,ES,39.8885,4.2658,70.36,83,75,17.27,broken clouds
211,Mazagao,BR,-0.115,-51.2894,86.05,70,98,4.21,overcast clouds
212,Lazaro Cardenas,MX,17.9583,-102.2,76.98,83,95,3.53,overcast clouds
213,Arraial Do Cabo,BR,-22.9661,-42.0278,78.76,69,75,5.75,broken clouds
214,Ust-Nera,RU,64.5667,143.2,-23.58,98,96,4.72,overcast clouds
215,Qaanaaq,GL,77.484,-69.3632,-5.51,66,0,8.93,clear sky
216,Sioux Lookout,CA,50.1001,-91.917,19.47,93,100,8.05,snow
217,Hamilton,US,39.1834,-84.5333,59.18,93,100,0.0,heavy intensity rain
218,Gao,ML,16.6362,1.637,92.19,9,0,13.11,clear sky
219,Camana,PE,-16.6228,-72.7111,66.11,82,84,8.34,broken clouds
220,Burnie,AU,-41.0667,145.9167,55.94,74,52,7.81,broken clouds
221,Dawson Creek,CA,55.7666,-120.2362,13.87,92,100,3.69,overcast clouds
222,Fortuna,US,40.5982,-124.1573,41.34,97,75,9.22,broken clouds
223,Pinawa,CA,50.1489,-95.8811,16.47,92,100,10.11,light snow
224,Hami,CN,42.8,93.45,38.05,36,0,4.85,clear sky
225,Oyem,GA,1.5995,11.5793,77.04,81,89,3.06,moderate rain
226,George,ZA,-33.963,22.4617,71.15,60,0,6.91,clear sky
227,Antalaha,MG,-14.9003,50.2788,79.3,63,11,12.39,few clouds
228,Lilongwe,MW,-13.9669,33.7873,79.0,50,75,4.61,broken clouds
229,Santa Cruz,BO,-17.8,-63.1667,77.05,78,40,13.8,smoke
230,Kaitangata,NZ,-46.2817,169.8464,49.15,94,100,6.38,overcast clouds
231,Salinas,US,36.6777,-121.6555,46.72,71,0,6.91,clear sky
232,Codrington,AU,-38.2667,141.9667,54.19,85,99,9.6,overcast clouds
233,Svetlaya,RU,46.5389,138.3297,36.75,45,100,7.85,overcast clouds
234,Srivardhan,IN,18.0333,73.0167,81.12,67,15,8.72,few clouds
235,Emerald,AU,-23.5333,148.1667,71.35,59,5,15.48,clear sky
236,Pangody,RU,65.85,74.4859,10.87,97,100,5.35,overcast clouds
237,Svetlogorsk,BY,52.6333,29.7333,49.89,78,92,9.62,overcast clouds
238,Torbay,CA,47.6666,-52.7314,39.27,97,100,3.44,light intensity shower rain
239,Georgetown,MY,5.4112,100.3354,77.9,94,40,5.75,scattered clouds
240,Oktyabrskoye,RU,43.0645,44.7417,51.35,62,20,6.71,few clouds
241,Bambanglipuro,ID,-7.95,110.2833,78.22,86,93,3.0,heavy intensity rain
242,Umm Kaddadah,SD,13.6017,26.6876,88.45,14,15,14.54,few clouds
243,Erenhot,CN,43.6475,111.9767,34.41,63,100,10.47,overcast clouds
244,Bundi,IN,25.4417,75.6417,79.65,27,3,6.89,clear sky
245,Plettenberg Bay,ZA,-34.0527,23.3716,70.92,66,11,7.81,few clouds
246,Teya,RU,60.3778,92.6267,24.51,92,94,8.1,overcast clouds
247,Fairbanks,US,64.8378,-147.7164,13.96,79,75,4.61,broken clouds
248,Shellbrook,CA,53.2168,-106.4011,-11.97,97,100,4.45,overcast clouds
249,Kijang,KR,35.2442,129.2139,60.53,71,4,8.03,clear sky
250,Porosozero,RU,62.7191,32.727,42.8,92,100,16.11,light rain
251,Praia,CV,14.9215,-23.5087,81.14,61,20,17.27,few clouds
252,Sao Miguel,BR,-5.4667,-35.3667,84.97,51,94,11.72,overcast clouds
253,Katunino,RU,64.3862,40.6298,35.49,99,100,6.82,overcast clouds
254,Puerto Colombia,CO,10.9878,-74.9547,77.09,80,100,9.93,overcast clouds
255,Novyy Urgal,RU,51.0736,132.5642,20.82,94,100,3.36,snow
256,Lagoa,PT,39.05,-27.9833,61.07,63,3,14.63,clear sky
257,Yizheng,CN,24.6706,103.4296,53.8,68,0,4.27,clear sky
258,Weinan,CN,34.5036,109.5089,52.2,76,100,14.56,overcast clouds
259,Eureka,US,40.8021,-124.1637,41.61,97,100,3.29,overcast clouds
260,Chernaya Kholunitsa,RU,58.8511,51.7154,41.22,99,100,5.64,overcast clouds
261,Ewa Beach,US,21.3156,-158.0072,76.98,74,20,5.75,few clouds
262,Zonalnaya Stantsiya,RU,56.4269,85.0221,31.24,94,75,11.18,light shower snow
263,Saint-Augustin,CA,51.226,-58.6502,28.02,54,39,12.48,scattered clouds
264,Apt,FR,43.8833,5.4,68.29,49,3,4.5,clear sky
265,Tokoroa,NZ,-38.2333,175.8667,61.95,83,100,1.01,overcast clouds
266,Jacksonville,US,30.3322,-81.6556,74.1,84,100,12.66,overcast clouds
267,Tommot,RU,58.9564,126.2925,19.58,86,100,11.12,overcast clouds
268,Futtsu,JP,35.3053,139.8186,63.19,80,54,9.64,broken clouds
269,Tabuk,PH,17.4189,121.4443,76.6,89,35,2.66,scattered clouds
270,Vestmannaeyjar,IS,63.4427,-20.2734,45.59,93,75,13.8,broken clouds
271,Praia Da Vitoria,PT,38.7333,-27.0667,64.76,77,20,11.39,few clouds
272,Geraldton,AU,-28.7667,114.6,61.21,55,2,19.57,clear sky
273,Kenai,US,60.5544,-151.2583,30.29,100,20,9.22,few clouds
274,Arinos,BR,-15.9169,-46.1056,80.51,63,100,1.88,overcast clouds
275,Atar,MR,20.5169,-13.0499,89.44,9,99,6.24,overcast clouds
276,Kashi,CN,39.4547,75.9797,47.41,36,20,4.47,few clouds
277,Satka,RU,55.0425,59.04,34.93,97,100,12.37,light snow
278,Yenagoa,NG,4.9247,6.2642,87.08,61,100,1.1,light rain
279,Zatyshshya,UA,47.3335,29.8733,54.03,63,100,8.34,overcast clouds
280,Fort Nelson,CA,58.8053,-122.7002,7.95,92,100,1.01,overcast clouds
281,Bend,US,44.0582,-121.3153,28.49,75,20,5.99,few clouds
282,Melnikovo,RU,56.5558,84.085,31.24,96,100,8.08,light snow
283,Half Moon Bay,US,37.4636,-122.4286,50.99,86,0,3.44,clear sky
284,San Patricio,US,28.017,-97.5169,76.86,92,18,5.46,few clouds
285,Carahue,CL,-38.7,-73.1667,55.99,96,99,2.42,overcast clouds
286,Shelburne,CA,44.0787,-80.2041,55.85,76,100,9.57,overcast clouds
287,Lenoir,US,35.2335,-77.6497,75.36,94,100,8.05,overcast clouds
288,Port Blair,IN,11.6667,92.75,82.44,74,40,2.3,mist
289,Constantine,DZ,36.365,6.6147,74.61,31,0,5.75,clear sky
290,Esperance,AU,-33.8667,121.9,53.44,74,96,21.92,overcast clouds
291,Rocha,UY,-34.4833,-54.3333,69.06,72,61,10.22,broken clouds
292,Sabang,ID,5.8933,95.3214,79.65,79,100,8.97,overcast clouds
293,Rabo De Peixe,PT,37.8,-25.5833,65.28,97,20,10.36,few clouds
294,Kavieng,PG,-2.5744,150.7967,78.49,86,100,7.07,overcast clouds
295,Trincomalee,LK,8.5711,81.2335,79.59,82,100,5.53,overcast clouds
296,Valparaiso,CL,-33.0393,-71.6273,63.0,81,100,4.61,overcast clouds
297,Shirokiy,RU,49.758,129.523,24.94,98,100,1.63,light snow
298,Baghdad,IQ,33.3406,44.4009,84.11,21,0,11.5,clear sky
299,Tambovka,RU,50.0969,128.0489,21.63,98,96,7.52,overcast clouds
300,Shingu,JP,33.7333,135.9833,58.95,80,4,6.04,clear sky
301,Ahipara,NZ,-35.1667,173.1667,62.29,87,60,6.38,broken clouds
302,Kaifeng,CN,34.7911,114.3483,63.32,79,69,5.66,broken clouds
303,Cidreira,BR,-30.1811,-50.2056,66.69,85,100,13.09,overcast clouds
304,Inuvik,CA,68.3499,-133.7218,16.66,92,100,2.3,light snow
305,Poum,NC,-20.2333,164.0167,75.88,77,100,11.43,overcast clouds
306,Sept-Iles,CA,50.2001,-66.3821,35.6,64,100,4.61,overcast clouds
307,Kuah,MY,6.3265,99.8432,82.38,78,20,5.75,moderate rain
308,Lasa,IT,46.6166,10.7002,58.08,72,93,1.39,overcast clouds
309,Guelph,CA,43.5501,-80.2497,52.48,74,100,5.75,overcast clouds
310,Omboue,GA,-1.5746,9.2618,83.95,64,77,7.29,broken clouds
311,Lalawigan,PH,11.5892,125.4697,80.06,86,77,3.15,broken clouds
312,Mareeba,AU,-17.0,145.4333,74.12,86,12,3.04,few clouds
313,Roebourne,AU,-20.7833,117.1333,76.05,55,0,22.03,clear sky
314,Sompeta,IN,18.9333,84.6,77.31,66,97,6.44,overcast clouds
315,Port Lincoln,AU,-34.7333,135.8667,60.94,83,93,14.41,overcast clouds
316,Steinbach,DE,50.1667,8.5667,57.2,90,75,3.44,fog
317,Korla,CN,41.7597,86.1469,40.75,42,1,4.5,clear sky
318,Shitanjing,CN,39.2342,106.3439,36.81,39,100,16.04,overcast clouds
319,Priyutnoye,RU,46.1011,43.5072,53.96,53,55,11.88,broken clouds
320,Koupela,BF,12.1794,-0.3517,92.75,18,99,4.43,overcast clouds
321,Buesaco,CO,1.3902,-77.1598,61.05,77,75,0.0,broken clouds
322,Petrivka,UA,46.9695,30.9591,48.27,88,100,6.73,overcast clouds
323,Mount Gambier,AU,-37.8333,140.7667,53.71,86,82,9.06,broken clouds
324,Tomatlan,MX,19.9333,-105.25,65.37,89,24,3.29,few clouds
325,Talnakh,RU,69.4865,88.3972,4.21,96,100,9.42,light snow
326,Broome,US,42.2506,-75.833,56.17,86,40,8.05,scattered clouds
327,Byron Bay,AU,-28.65,153.6167,65.95,74,75,8.37,broken clouds
328,Bayan,CN,46.0833,127.4,41.81,55,99,11.83,overcast clouds
329,Malpe,IN,13.35,74.7167,85.3,70,89,3.38,overcast clouds
330,Gachala,CO,4.6924,-73.5204,62.1,88,55,1.99,broken clouds
331,Rawson,AR,-43.3002,-65.1023,52.09,93,75,2.3,broken clouds
332,Berlevag,NO,70.8578,29.0864,35.6,80,100,12.66,light rain
333,Agadez,NE,19.75,10.25,79.9,20,56,7.72,broken clouds
334,Avera,US,33.194,-82.5271,69.55,94,100,17.72,overcast clouds
335,Gallup,US,35.5281,-108.7426,18.36,86,0,0.0,clear sky
336,Lugovoy,KZ,42.9472,72.7644,41.25,54,20,2.42,few clouds
337,Margate,GB,51.3813,1.3862,60.12,80,69,4.0,broken clouds
338,Puerto Madryn,AR,-42.7692,-65.0385,55.04,70,31,3.15,scattered clouds
339,Buta,CD,2.7858,24.73,80.96,68,99,2.71,light rain
340,Touros,BR,-5.1989,-35.4608,85.91,53,94,11.32,overcast clouds
341,Miles City,US,46.4083,-105.8406,-13.83,99,0,3.44,mist
342,Siocon,PH,7.7061,122.1353,80.53,84,97,3.94,light rain
343,Asau,RO,46.4333,26.4,51.28,60,88,6.51,overcast clouds
344,Bereda,ES,43.2686,-7.5406,63.57,57,2,3.24,clear sky
345,Ortona,IT,42.3496,14.4039,65.46,75,94,13.67,overcast clouds
346,Kongolo,CD,-5.3833,27.0,81.93,64,99,3.58,light rain
347,Saint Paul,US,44.9444,-93.0933,27.88,76,100,13.8,overcast clouds
348,Kondinskoye,RU,59.6481,67.41,32.76,98,100,13.94,overcast clouds
349,Pitimbu,BR,-7.4706,-34.8086,79.39,66,88,9.31,overcast clouds
350,Leningradskiy,RU,69.3833,178.4167,7.61,96,100,11.05,light snow
351,Den Helder,NL,52.9599,4.7593,57.18,89,75,21.0,broken clouds
352,Parfenyevo,RU,58.484,43.4088,44.1,98,100,6.62,overcast clouds
353,Nabire,ID,-3.3667,135.4833,77.29,87,87,2.51,overcast clouds
354,Rantepao,ID,-2.9701,119.8978,68.58,97,100,1.81,overcast clouds
355,Kushmurun,KZ,52.4503,64.6311,35.62,94,100,16.58,overcast clouds
356,Palenque,MX,17.5167,-91.9667,68.18,91,6,2.89,clear sky
357,Tapes,BR,-30.6733,-51.3958,69.03,76,100,9.24,light rain
358,Tautira,PF,-17.7333,-149.15,75.83,83,100,4.72,light rain
359,Matagami,CA,49.7502,-77.6328,30.31,93,100,8.05,heavy snow
360,Immokalee,US,26.4187,-81.4173,73.9,94,49,5.32,scattered clouds
361,Xinyu,CN,27.8043,114.9334,78.46,47,29,3.11,scattered clouds
362,Bathsheba,BB,13.2167,-59.5167,83.01,78,20,16.11,few clouds
363,Aykhal,RU,66.0,111.5,-8.54,94,100,10.54,overcast clouds
364,Mehamn,NO,71.0357,27.8492,35.55,87,75,8.05,light rain
365,San Quintin,MX,30.4833,-115.95,57.43,58,94,2.95,overcast clouds
366,Owando,CG,-0.4819,15.8999,82.58,68,43,2.01,light rain
367,Vila Franca Do Campo,PT,37.7167,-25.4333,66.2,69,100,5.14,overcast clouds
368,Itoman,JP,26.1247,127.6694,77.02,92,75,19.57,light rain
369,Ergani,TR,38.2653,39.7621,57.45,50,9,3.0,clear sky
370,Gushikawa,JP,26.3544,127.8686,76.23,91,75,19.57,light rain
371,Mizdah,LY,31.4451,12.9801,69.91,42,41,8.41,scattered clouds
372,Manokwari,ID,-0.8667,134.0833,80.2,81,100,4.61,overcast clouds
373,Cavalcante,BR,-13.7975,-47.4583,82.44,54,99,2.57,heavy intensity rain
374,Tanete,ID,-3.9443,119.7848,76.48,95,100,0.67,overcast clouds
375,Cervo,ES,43.6702,-7.4101,64.26,61,0,2.26,clear sky
376,Vestmanna,FO,62.1564,-7.1664,49.12,87,75,11.5,light rain
377,Mikhaylovskoye,RU,51.8239,79.7172,30.22,96,98,11.77,light snow
378,Moerai,PF,-22.4333,-151.3333,69.94,73,100,14.41,overcast clouds
379,Sakakah,SA,29.9697,40.2064,80.17,35,53,8.37,broken clouds
380,Zapresic,HR,45.8564,15.8078,60.93,74,100,2.33,overcast clouds
381,Srandakan,ID,-7.9386,110.2506,78.24,86,100,1.86,heavy intensity rain
382,Ancud,CL,-41.8697,-73.8203,53.92,92,100,2.39,light rain
383,Fare,PF,-16.7,-151.0167,77.86,78,16,6.8,light rain
384,Cartagena,CO,10.3997,-75.5144,76.62,94,40,1.14,scattered clouds
385,Sao Joao Da Barra,BR,-21.6403,-41.0511,80.69,83,97,4.47,overcast clouds
386,Mayumba,GA,-3.432,10.6554,80.01,77,94,6.58,light rain
387,Constitucion,CL,-35.3333,-72.4167,58.66,73,34,12.39,scattered clouds
388,Sumbe,AO,-11.2061,13.8437,79.12,67,100,11.48,overcast clouds
389,Sao Pedro Do Sul,BR,-29.6206,-54.1789,63.25,93,100,4.7,overcast clouds
390,Treinta Y Tres,UY,-33.2333,-54.3833,71.2,64,90,11.21,overcast clouds
391,Bonthe,SL,7.5264,-12.505,86.77,58,61,7.81,light rain
392,Victoria,HK,22.2855,114.1577,79.18,83,0,3.0,clear sky
393,Beaver Dam,US,43.4578,-88.8373,38.34,89,100,12.66,overcast clouds
394,Itaituba,BR,-4.2761,-55.9836,84.36,79,0,5.75,clear sky
395,Marystown,CA,47.1666,-55.1483,42.85,100,99,13.94,overcast clouds
396,Pierre,US,44.3683,-100.351,18.05,80,20,19.57,few clouds
397,Wainwright,CA,52.839,-110.8572,-14.71,100,12,2.86,few clouds
398,Dodoma,TZ,-6.1722,35.7395,89.44,24,26,10.45,scattered clouds
399,Korem,ET,12.5058,39.5228,63.55,40,19,10.07,few clouds
400,Dossor,KZ,47.5272,52.9811,45.28,70,0,5.75,clear sky
401,Normandin,CA,48.8333,-72.5321,35.91,93,100,8.05,light rain
402,Menongue,AO,-14.6585,17.691,87.53,22,99,4.05,overcast clouds
403,Anadyr,RU,64.75,177.4833,0.1,85,59,8.95,fog
404,Zhangye,CN,38.9342,100.4517,37.44,47,100,1.83,overcast clouds
405,Pulandian,CN,39.3953,121.9669,58.28,83,100,10.38,overcast clouds
406,Carroll,US,39.5501,-77.0164,61.2,89,100,4.61,overcast clouds
407,Laredo,US,27.5064,-99.5075,73.69,88,100,9.22,overcast clouds
408,Saint-Ambroise,CA,48.5501,-71.3324,39.58,92,100,2.55,overcast clouds
409,Chiredzi,ZW,-21.05,31.6667,84.65,51,94,9.33,light rain
410,Charters Towers,AU,-20.1,146.2667,71.06,71,0,13.47,clear sky
411,Denpasar,ID,-8.65,115.2167,82.06,83,20,8.05,few clouds
412,Iskateley,RU,67.6803,53.1512,17.53,98,89,3.98,overcast clouds
413,Mogadishu,SO,2.0371,45.3438,85.87,74,20,11.5,few clouds
414,Novo Aripuana,BR,-5.1206,-60.3797,89.51,52,100,4.16,overcast clouds
415,Reconquista,AR,-29.15,-59.65,81.86,42,14,10.96,few clouds
416,Acapulco,MX,16.8634,-99.8901,76.82,88,40,0.0,scattered clouds
417,Makakilo City,US,21.3469,-158.0858,75.56,74,20,5.75,few clouds
418,Samarai,PG,-10.6167,150.6667,80.15,80,94,11.68,overcast clouds
419,Namatanai,PG,-3.6667,152.4333,78.33,84,100,6.53,light rain
420,Sorland,NO,67.667,12.6934,48.06,80,100,35.21,light rain
421,Belmonte,BR,-15.8631,-38.8828,81.45,69,100,7.67,overcast clouds
422,Iquitos,PE,-3.7481,-73.2472,75.24,94,100,2.3,overcast clouds
423,Bam,IR,29.106,58.357,73.35,22,100,6.76,overcast clouds
424,Sisimiut,GL,66.9395,-53.6735,15.15,80,100,9.4,overcast clouds
425,Rosita,NI,13.9268,-84.4032,74.01,88,14,1.43,few clouds
426,College Place,US,46.0493,-118.3883,32.97,90,40,8.05,scattered clouds
427,Kolokani,ML,13.5728,-8.0339,91.22,10,0,1.59,clear sky
428,Polaniec,PL,50.4332,21.2812,56.91,84,100,1.01,overcast clouds
429,Catamarca,AR,-28.4696,-65.7852,79.59,52,42,1.99,scattered clouds
430,Esmeralda,CU,21.8525,-78.1169,76.12,81,57,3.36,broken clouds
431,Vysokogornyy,RU,50.1167,139.15,19.92,80,100,1.41,overcast clouds
432,Itarema,BR,-2.9248,-39.9167,83.59,62,99,15.28,overcast clouds
433,Presidencia Roque Saenz Pena,AR,-26.7852,-60.4388,80.89,47,54,7.25,broken clouds
434,Grindavik,IS,63.8424,-22.4338,41.47,93,100,9.22,overcast clouds
435,Saint-Denis,FR,48.9167,2.3333,53.76,48,72,6.13,broken clouds
436,Montepuez,MZ,-13.1256,38.9997,95.16,19,72,8.63,broken clouds
437,Cartagena Del Chaira,CO,1.3349,-74.8429,72.75,98,100,2.64,overcast clouds
438,Bambous Virieux,MU,-20.3428,57.7575,78.22,71,25,10.56,scattered clouds
439,Mahajanga,MG,-15.7167,46.3167,86.02,74,40,14.97,scattered clouds
440,Nova Olinda Do Norte,BR,-3.8881,-59.0942,89.24,43,92,6.06,overcast clouds
441,Inongo,CD,-1.95,18.2667,74.73,90,86,4.12,moderate rain
442,Bac Lieu,VN,9.285,105.7244,79.43,86,100,11.12,overcast clouds
443,Alekseyevsk,RU,57.8406,108.3492,23.23,93,100,7.83,overcast clouds
444,Ciudad Bolivar,VE,8.1222,-63.5497,81.12,74,20,4.74,few clouds
445,Muyezerskiy,RU,63.9333,31.65,45.14,93,100,16.6,light rain
446,Bara,NG,10.3744,10.7288,94.87,17,100,7.83,overcast clouds
447,Isangel,VU,-19.55,169.2667,77.59,87,35,6.64,scattered clouds
448,Havre-Saint-Pierre,CA,50.2334,-63.5986,33.8,74,40,5.75,scattered clouds
449,Tabou,CI,4.423,-7.3528,82.24,71,41,8.34,light rain
450,Fatehabad,IN,29.5167,75.45,73.87,32,0,6.87,clear sky
451,Kautokeino,NO,69.0125,23.0412,27.91,96,100,4.92,light snow
452,Koltubanovskiy,RU,52.9407,52.0269,42.33,84,100,12.24,overcast clouds
453,Charkhi Dadri,IN,28.6,76.2667,75.6,32,0,6.98,clear sky
454,Ilo,PE,-17.6394,-71.3375,67.15,72,30,7.43,scattered clouds
455,Hasaki,JP,35.7333,140.8333,61.2,68,39,11.41,scattered clouds
456,Roald,NO,62.5833,6.1333,54.75,93,100,6.91,light rain
457,Maralal,KE,1.0968,36.698,66.72,63,100,9.89,light rain
458,Russell,US,32.3502,-85.1999,66.0,94,100,4.61,light intensity drizzle
459,Husavik,IS,66.0449,-17.3389,37.85,99,100,8.28,light rain
460,Lentekhi,GE,42.7856,42.7261,52.03,69,11,3.04,few clouds
461,Xapuri,BR,-10.6517,-68.5044,80.08,73,100,4.21,overcast clouds
462,Necochea,AR,-38.5473,-58.7368,72.45,45,99,9.35,overcast clouds
463,Bud,US,39.447,-86.1758,55.35,76,100,5.82,overcast clouds
464,Beringovskiy,RU,63.05,179.3167,11.41,76,11,6.24,few clouds
465,Azare,NG,11.6765,10.1948,93.4,15,57,8.84,broken clouds
466,Plaridel,PH,14.8872,120.8572,84.18,80,21,5.12,few clouds
467,Lasem,ID,-6.6922,111.4527,80.51,81,100,3.38,moderate rain
468,Yaan,NG,7.3833,8.5667,92.53,40,100,2.91,overcast clouds
469,Cap Malheureux,MU,-19.9842,57.6142,78.48,65,22,5.99,few clouds
470,Liberal,US,37.0431,-100.921,27.64,68,100,17.27,overcast clouds
471,Pochutla,MX,15.7432,-96.4661,71.82,78,37,4.45,scattered clouds
472,Guapo,BR,-16.8306,-49.5319,75.58,44,100,6.35,overcast clouds
473,Iracoubo,GF,5.4802,-53.2011,82.13,75,99,4.52,overcast clouds
474,Ambon,ID,-3.6954,128.1814,81.23,13,40,6.91,scattered clouds
475,Grafton,US,42.207,-71.6856,56.16,87,20,6.91,few clouds
476,Gisborne,NZ,-38.6533,178.0042,62.56,97,100,11.95,overcast clouds
477,Pimentel,PE,-6.8367,-79.9342,62.89,88,100,9.22,overcast clouds
478,Chatham,GB,51.3789,0.5279,62.35,66,82,8.01,broken clouds
479,Comodoro Rivadavia,AR,-45.8667,-67.5,55.26,82,0,4.61,clear sky
480,Ilulissat,GL,69.2167,-51.1,21.22,63,75,19.57,broken clouds
481,Gravdal,NO,68.1214,13.5031,44.49,93,75,10.36,drizzle rain
482,Sistranda,NO,63.7256,8.834,51.76,80,100,31.09,light rain
483,Kasongo-Lunda,CD,-6.4667,16.8167,76.21,86,59,6.46,light rain
484,Vao,NC,-22.6667,167.4833,72.75,73,5,13.35,clear sky
485,Chuzhou,CN,32.3219,118.2978,69.44,79,6,9.55,clear sky
486,Kyren,RU,51.6828,102.1408,13.53,85,26,2.46,scattered clouds
487,Axim,GH,4.8699,-2.2405,83.17,70,100,8.3,overcast clouds
488,Solginskiy,RU,61.05,41.3428,44.17,92,100,8.59,overcast clouds
489,Lorengau,PG,-2.0226,147.2712,81.72,76,100,2.59,overcast clouds
490,Bilma,NE,18.6853,12.9164,85.05,18,53,3.22,broken clouds
491,Templin,DE,53.1186,13.5022,56.82,61,100,11.3,overcast clouds
492,Coruripe,BR,-10.1256,-36.1756,82.49,71,52,8.88,broken clouds
493,Komsomolets,KZ,53.7453,62.0708,37.0,95,100,17.09,light rain
494,The Valley,AI,18.217,-63.0578,82.26,77,98,17.4,overcast clouds
495,Lata,PT,40.1629,-8.3327,71.08,48,0,11.86,clear sky
496,Independence,US,39.0911,-94.4155,28.49,71,40,20.71,scattered clouds
497,Ulaangom,MN,49.9811,92.0667,19.6,93,100,3.53,overcast clouds
498,Kalmunai,LK,7.4167,81.8167,79.77,81,83,3.69,light rain
499,Sandovo,RU,58.4602,36.4128,46.0,87,100,11.41,overcast clouds
500,Diyarb Najm,EG,30.7542,31.4393,77.94,34,0,14.76,clear sky
501,Golfito,CR,8.639,-83.166,75.09,92,96,1.25,overcast clouds
502,Mirnyy,RU,62.5353,113.9611,0.9,94,100,8.12,overcast clouds
503,Portsmouth,GB,50.799,-1.0913,61.92,86,12,7.0,few clouds
504,Riyadh,SA,24.6877,46.7219,89.74,15,100,14.23,overcast clouds
505,Mana,GF,5.6592,-53.7767,80.11,81,100,3.53,overcast clouds
506,Pine Bluff,US,34.2284,-92.0032,51.73,87,0,0.0,mist
507,Tiarei,PF,-17.5333,-149.3333,77.02,80,100,4.45,light rain
508,Avila,ES,40.5833,-5.0,52.65,61,52,9.75,broken clouds
509,Inyonga,TZ,-6.7167,32.0667,81.21,45,57,8.3,broken clouds
510,Goderich,CA,43.7501,-81.7165,55.9,76,100,6.91,overcast clouds
511,Lerwick,GB,60.1545,-1.1494,55.4,95,100,24.87,light rain
512,Saint-Francois,FR,46.4154,3.9054,60.67,81,72,7.56,broken clouds
513,Rayong,TH,12.8333,101.4333,83.08,99,100,3.53,overcast clouds
514,Laibin,CN,23.7,109.2667,76.84,61,3,5.73,clear sky
515,Losal,IN,27.4,74.9167,75.63,31,0,5.95,clear sky
516,Xiaoweizhai,CN,26.1903,107.5125,66.47,74,0,7.38,clear sky
517,Nicoya,CR,10.1483,-85.452,74.46,91,100,1.32,overcast clouds
518,Batagay,RU,67.6333,134.6333,-5.98,98,100,2.84,overcast clouds
519,Igrim,RU,63.1906,64.4162,32.4,99,100,4.72,light snow
520,Zhezkazgan,KZ,47.8043,67.7144,30.18,80,100,11.18,overcast clouds
521,Bucerias,MX,20.75,-105.3333,70.99,83,0,0.0,clear sky
522,Isla Vista,US,34.4133,-119.861,58.82,62,0,0.0,clear sky
523,Aygut,AM,40.6833,45.1729,40.96,85,100,3.56,overcast clouds
524,Huilong,CN,31.8111,121.655,67.93,93,10,10.51,clear sky
525,Santa Rosa,PH,14.3122,121.1114,84.18,87,10,8.3,clear sky
526,Sarankhola,BD,22.3082,89.7897,73.04,66,0,1.12,clear sky
527,Aguada De Pasajeros,CU,22.385,-80.8508,76.23,80,0,2.84,moderate rain
528,Maumere,ID,-8.6199,122.2111,81.59,76,100,4.85,overcast clouds
529,Serov,RU,59.6033,60.5787,35.8,99,100,5.1,overcast clouds
530,Otane,NZ,-39.8833,176.6333,59.02,99,100,5.57,light rain
531,Do Gonbadan,IR,30.3586,50.7981,75.29,41,75,9.22,broken clouds
532,Karratha,AU,-20.7377,116.8463,74.64,64,0,21.05,clear sky
533,Santa Fe,AR,-31.6333,-60.7,79.02,60,100,4.0,overcast clouds
534,Christchurch,NZ,-43.5333,172.6333,56.91,91,75,17.27,broken clouds
535,Akonolinga,CM,3.7667,12.25,80.96,64,57,1.07,light rain
536,Sitrah,BH,26.1547,50.6206,91.4,52,20,4.61,few clouds
537,Changping,CN,40.2186,116.2197,55.04,95,100,1.48,light rain
538,Salinopolis,BR,-0.6136,-47.3561,84.96,68,40,11.39,scattered clouds
539,Shar,KZ,49.5886,81.0453,25.23,90,100,4.68,overcast clouds
540,Ulaanbaatar,MN,47.9077,106.8832,6.93,85,0,6.71,clear sky
541,Houma,US,29.5958,-90.7195,55.4,98,0,0.0,clear sky
542,High Level,CA,58.5169,-117.136,5.0,95,100,5.37,overcast clouds
543,Mbandaka,CD,0.0487,18.2603,77.74,86,50,1.66,moderate rain
544,Oussouye,SN,12.485,-16.5469,89.78,30,100,5.73,overcast clouds
545,Skara,SE,58.3866,13.4384,55.74,90,100,17.0,overcast clouds
546,Kangaatsiaq,GL,68.3065,-53.4641,15.3,87,100,6.06,overcast clouds
547,Porto Novo,BJ,6.4965,2.6036,85.87,63,100,8.5,overcast clouds
548,Salalah,OM,17.0151,54.0924,86.09,62,20,5.75,few clouds
549,Marrakesh,MA,31.6315,-8.0083,77.07,33,0,3.44,clear sky
550,Faanui,PF,-16.4833,-151.75,77.04,82,61,6.31,light rain
551,Benguela,AO,-12.5763,13.4055,78.37,61,100,11.39,overcast clouds
552,Bowen,AU,-20.0167,148.2333,75.02,65,0,9.64,clear sky
553,Okmulgee,US,35.6234,-95.9605,41.11,81,100,16.11,overcast clouds
554,Kerchevskiy,RU,59.946,56.2884,36.19,99,100,5.17,overcast clouds
555,Rapid Valley,US,44.0625,-103.1463,10.53,78,0,5.75,clear sky
556,Borogontsy,RU,62.6683,131.1683,3.13,97,100,4.68,light snow
557,Sinnamary,GF,5.3833,-52.95,82.4,74,100,4.23,overcast clouds
558,Arrifes,PT,37.7667,-25.7,64.24,68,20,10.36,few clouds
559,Macamic,CA,48.7502,-78.9996,29.17,95,100,11.74,heavy snow
560,Lahat,ID,-3.8,103.5333,73.33,95,100,1.79,overcast clouds
561,Kaolinovo,BG,43.6167,27.1167,51.24,93,100,9.69,light rain
562,Kirovskiy,RU,45.0917,133.5136,41.54,85,100,8.68,overcast clouds
563,Yatou,CN,37.15,122.3833,58.91,92,8,9.19,clear sky
564,Halifax,CA,44.6453,-63.5724,55.22,88,92,4.0,overcast clouds
565,Saint-Pierre,RE,-21.3393,55.4781,75.9,81,43,5.39,scattered clouds
566,Kayerkan,RU,69.3497,87.7602,3.52,84,100,7.18,light snow
567,Jalu,LY,29.0331,21.5482,74.37,26,0,9.26,clear sky
568,Batagay-Alyta,RU,67.8006,130.4114,-15.75,91,100,2.19,overcast clouds
569,Aklavik,CA,68.2191,-135.0107,20.7,97,100,3.56,light snow
570,Menomonie,US,44.8755,-91.9193,25.57,73,37,14.2,scattered clouds
571,Antsohihy,MG,-14.8796,47.9875,89.17,48,8,14.65,clear sky
572,Portland,US,45.5234,-122.6762,44.58,81,100,10.0,overcast clouds
573,Saeby,DK,57.3319,10.5225,58.96,82,100,24.7,overcast clouds
574,Yulara,AU,-25.2406,130.9889,89.15,22,99,21.43,overcast clouds
575,Seybaplaya,MX,19.65,-90.6667,65.66,87,8,6.24,clear sky
576,Ponta Delgada,PT,37.7333,-25.6667,66.51,68,20,10.36,few clouds
577,Arawa,PG,-6.2132,155.5367,77.14,91,99,2.98,light rain
578,Taoudenni,ML,22.6783,-3.9836,88.92,9,95,8.97,overcast clouds
579,Mathathane,BW,-22.2687,28.7495,82.08,50,100,17.29,overcast clouds
580,Bandarbeyla,SO,9.4942,50.8122,81.45,64,33,16.98,scattered clouds
581,San Jeronimo,PE,-11.9472,-75.2829,53.29,66,100,1.86,overcast clouds
582,Nokia,FI,61.4667,23.5,52.02,93,75,8.05,broken clouds
583,Bafia,CM,4.75,11.2333,83.14,63,31,6.4,light rain
584,Milkovo,RU,54.7167,158.6167,19.54,85,100,4.63,overcast clouds
585,Teknaf,BD,20.8624,92.3058,75.69,69,8,7.38,clear sky
586,Parksville,CA,49.3163,-124.3195,40.64,92,100,11.5,light rain
587,San Policarpo,PH,12.1791,125.5072,81.7,83,49,5.59,scattered clouds
588,Dom Pedro,BR,-4.4833,-44.45,90.12,53,15,2.3,few clouds
589,Jumla,NP,29.2747,82.1838,40.42,81,37,3.67,scattered clouds
590,Bayir,TR,37.2687,28.2167,66.72,29,0,3.53,clear sky
591,Te Anau,NZ,-45.4167,167.7167,51.44,82,100,0.45,overcast clouds
592,Nishihara,JP,26.1842,127.7558,76.28,94,100,19.57,mist
593,Blagoveshchensk,RU,50.2667,127.5333,27.21,100,75,11.18,broken clouds
594,Moose Factory,CA,51.2585,-80.6094,32.0,64,100,13.8,overcast clouds
595,Marsabit,KE,2.3284,37.9899,70.61,64,100,16.58,light rain
596,Cuamba,MZ,-14.8031,36.5372,86.2,39,59,4.32,broken clouds
597,Balatonfenyves,HU,46.7154,17.4922,55.54,61,100,4.21,overcast clouds
598,Gonbad-E Qabus,IR,37.25,55.1672,65.35,39,1,3.11,clear sky
599,Peniche,PT,39.3558,-9.3811,67.93,71,0,11.5,clear sky
600,Timizart,DZ,36.8,4.2667,76.37,34,92,3.53,overcast clouds
601,Seymchan,RU,62.8833,152.4333,-17.52,98,100,1.32,overcast clouds
602,Komsomolskiy,UZ,40.4272,71.7189,47.12,57,94,0.0,overcast clouds
603,Pilar Do Sul,BR,-23.8131,-47.7164,77.74,45,9,4.05,clear sky
604,Rongcheng,CN,30.634,117.8517,71.65,68,6,2.98,clear sky
605,Tiznit,MA,29.5833,-9.5,79.56,16,0,5.32,clear sky
606,Guerrero Negro,MX,27.9769,-114.0611,57.13,58,32,1.97,scattered clouds
607,Fuzhou,CN,26.0614,119.3061,73.29,95,23,1.86,few clouds
608,Truckee,US,39.328,-120.1833,25.92,90,100,3.36,overcast clouds
609,Simoes,BR,-7.5989,-40.8178,89.47,36,71,8.03,broken clouds
610,Nizhniy Odes,RU,63.6445,54.856,27.64,95,100,5.97,overcast clouds
611,Ivanteyevka,RU,55.9711,37.9208,48.34,92,100,7.81,overcast clouds
612,Kodinsk,RU,58.6881,99.1844,25.11,95,97,6.13,overcast clouds
613,Bouloupari,NC,-21.8667,166.05,71.51,83,4,4.88,clear sky
614,Khirkiya,IN,22.1674,76.8605,75.94,46,5,5.12,clear sky
615,Waddan,LY,29.1614,16.139,73.63,33,0,5.28,clear sky
616,Sembakung,ID,3.8167,117.25,75.85,96,100,1.25,overcast clouds
617,Duncan,US,34.5023,-97.9578,44.49,69,100,19.57,overcast clouds
618,Asahikawa,JP,43.7678,142.3703,36.16,66,95,4.47,overcast clouds
619,Hong Gai,VN,20.956,107.0946,76.91,91,7,5.61,clear sky
620,Wanxian,CN,30.8039,108.3897,73.67,70,100,4.12,overcast clouds
621,Nacala,MZ,-14.5428,40.6728,85.32,61,40,11.5,scattered clouds
622,Beloha,MG,-25.1667,45.05,86.7,44,63,15.08,broken clouds
623,Tombouctou,ML,20.0,-3.0,91.04,7,1,9.78,clear sky
624,Turinskaya Sloboda,RU,57.6232,64.3858,32.76,99,100,9.6,snow
625,Baishishan,CN,43.5833,127.5667,47.95,96,100,5.75,overcast clouds
626,Makueni,KE,-1.8041,37.6203,73.33,63,79,9.35,light rain
627,Puri,IN,19.8,85.85,81.12,62,10,8.16,clear sky
628,Vostok,RU,46.4856,135.8833,31.33,70,100,7.18,light snow
629,Tazovskiy,RU,67.4667,78.7,-3.78,90,8,9.4,clear sky
630,Ilheus,BR,-14.7889,-39.0494,78.62,89,75,6.91,broken clouds
631,Bom Jesus,BR,-9.0744,-44.3586,89.22,45,42,4.59,scattered clouds
632,Rudbar,AF,30.15,62.6,71.98,25,26,6.42,scattered clouds
633,Naples,IT,40.8333,14.25,71.42,59,0,11.5,clear sky
634,Devrek,TR,41.2192,31.9558,59.85,50,0,6.42,clear sky
635,Soe,ID,-9.8607,124.284,69.66,93,100,2.71,overcast clouds
636,Basoko,CD,1.2391,23.616,71.69,95,100,5.17,overcast clouds
637,Bubaque,GW,11.2833,-15.8333,80.42,67,100,4.9,overcast clouds
638,Papara,BR,-3.9839,-38.7273,86.95,66,100,7.83,overcast clouds
639,Macusani,PE,-14.0833,-70.4333,43.99,53,41,2.91,scattered clouds
640,Kununurra,AU,-15.7667,128.7333,87.78,55,1,9.22,light rain
641,Jardim,BR,-21.4803,-56.1381,84.15,50,95,6.69,overcast clouds
642,Begoro,GH,6.3871,-0.3774,84.85,55,62,1.81,light rain
643,Ipameri,BR,-17.7219,-48.1597,85.95,41,100,6.29,overcast clouds
644,Davila,PH,18.4726,120.5763,80.58,84,2,8.7,clear sky
645,Segezha,RU,63.7415,34.3222,43.56,90,100,20.47,light rain
646,Bad Durkheim,DE,49.4686,8.1664,58.08,58,100,2.84,overcast clouds
647,Quatre Cocos,MU,-20.2078,57.7625,78.1,70,30,11.5,scattered clouds
648,Jalingo,NG,8.8833,11.3667,95.52,28,100,3.4,overcast clouds
649,Schoningen,DE,52.138,10.9675,58.39,46,98,6.89,overcast clouds
650,Iquique,CL,-20.2208,-70.1431,64.44,63,29,6.91,scattered clouds
651,Biak,ID,-0.9131,122.8766,79.16,81,100,0.58,overcast clouds
652,Mayor Pablo Lagerenza,PY,-19.9309,-60.7718,93.72,36,1,13.09,clear sky
653,Maraa,BR,-1.8333,-65.3667,78.19,84,100,2.55,overcast clouds
654,Whitehorse,CA,60.7161,-135.0538,20.17,93,75,3.44,broken clouds
655,Carinhanha,BR,-14.3047,-43.765,89.46,41,99,2.68,overcast clouds
656,Nalgonda,IN,17.05,79.2667,74.68,62,92,6.55,overcast clouds
657,High Rock,BS,26.6208,-78.2833,77.02,76,6,17.02,clear sky
658,Gemena,CD,3.25,19.7667,74.03,96,100,4.25,moderate rain
659,Doha,QA,25.2867,51.5333,89.49,55,20,9.22,few clouds
660,Cabedelo,BR,-6.9811,-34.8339,79.47,63,86,10.51,overcast clouds
661,Minjur,IN,13.2667,80.2667,82.42,87,100,16.98,overcast clouds
662,Yuanping,CN,38.7153,112.7575,48.18,91,100,1.01,heavy intensity rain
663,Krasnoselkup,RU,65.7,82.4667,12.34,94,100,14.27,overcast clouds
664,Formosa Do Rio Preto,BR,-11.0483,-45.1931,87.69,47,77,4.72,broken clouds
665,San Felipe,VE,10.3399,-68.7425,78.82,79,97,1.52,overcast clouds
666,Trowbridge,GB,51.3189,-2.2086,61.75,85,32,4.0,scattered clouds
667,Ambulu,ID,-8.345,113.6058,75.88,94,100,3.98,overcast clouds
668,Stabat,ID,3.761,98.4513,80.8,98,100,1.05,overcast clouds
669,Thunder Bay,CA,48.4001,-89.3168,28.38,86,100,4.61,overcast clouds
670,Puerto Ayacucho,VE,5.6639,-67.6236,80.02,78,57,0.81,broken clouds
671,Prince Rupert,CA,54.3161,-130.3201,40.69,93,100,17.27,overcast clouds
672,Bulgan,MN,48.8125,103.5347,20.1,68,1,2.37,clear sky
673,Agdas,AZ,40.65,47.4761,55.27,81,100,1.52,overcast clouds
674,Impfondo,CG,1.6381,18.0667,84.18,65,43,1.99,light rain
675,Sulangan,PH,11.1373,123.7228,83.28,77,18,9.35,few clouds
676,Huarmey,PE,-10.0681,-78.1522,64.51,84,100,5.44,overcast clouds
677,Luganville,VU,-15.5333,167.1667,79.21,86,100,5.66,overcast clouds
678,Flinders,AU,-34.5833,150.8552,65.17,83,7,5.99,clear sky
679,Imeni Poliny Osipenko,RU,52.4201,136.4853,21.54,80,100,3.4,overcast clouds
680,Cantagallo,CO,7.376,-73.9196,73.98,88,100,0.34,overcast clouds
681,Aksu,CN,41.1231,80.2644,44.22,38,52,5.68,broken clouds
682,Bull Savanna,JM,17.8868,-77.5902,76.73,83,99,6.91,overcast clouds
